{
  "title": "",
  "mode": "bars",
  "legend": {
    "isVisible": false
  },
  "tooltip": {
    "backgroundColor": "#FFF",
    "borderColor": "#fa87c7",
    "bars": {
      "title": [],
      "body": [
        "<span class='metric' style='color: #333;'>Sales</span><span class='number' style='color: #fa87c7;'>{{sales}}</span>",
        "<span class='metric' style='color: #333;'>Hourly Walk-ins</span><span class='number' style='color: #fa87c7;'>{{hourlyWalkIns}}</span>",
        "<span class='metric' style='color: #333;'>STS Ratio</span><span class='number' style='color: #fa87c7;'>{{StsRatio}}</span>"
      ]
    }
  },
  "tooltipTable": {
    "backgroundColor": "#FFF",
    "borderColor": "#fa87c7",
    "bars": {
      "title": [],
      "body": [
          "<span class='metric' style='color: #333;'>Store Name</span><span class='number' style='color: #fa87c7;'>{{name}}</span>",
          "<span class='metric' style='color: #333;'>Store Location</span><span class='number' style='color: #fa87c7;'>{{storeLocation}}</span>",
          "<span class='metric' style='color: #333;'>Store Type</span><span class='number' style='color: #fa87c7;'>{{storeType}}</span>",
          "<span class='metric' style='color: #333;'>Footage</span><span class='number' style='color: #fa87c7;'>{{storeFootage}}</span>"
      ]
    }
  },
  "attrs": {
    "legendBins": 0,
    "cities": false
  },
  "bars": {
    "mapColor": "#FFF",
    "mapStrokeColor": "#d5dadc",
    "mapOpacity": "0.7",
    "barWidth": "1",
    "barMaxHeight": 20,
    "bottomBarHeight": 0,
    "bottomBarColor": "#d6a9bb",
    "barColor": "#d6a9bb",
    "draggableColor": "#f98427",
    "arrowsColor": "#fff",
    "barStyle": "pin",
    "pinRadius": 4,
    "prefix": "$",
    "sufix": "",
    "format": "",
    "type": "number"
  },
  "data": {
    "bars": [
      {
        "id": "store-0",
        "name": "New York",
        "label": "New York",
        "lat": 40.7127837,
        "lon": -74.0059413,
        "value": 10,
        "sales": "$250K",
        "hourlyWalkIns": "305",
        "StsRatio": "287",
        "storeLocation": "SOUTH PARK",
        "storeType": "PINK STORE",
        "storeFootage": "5500 sq. ft."
      },
      {
        "id": "store-1",
        "name": "Los Angeles",
        "label": "Los Angeles",
        "lat": 34.0522342,
        "lon": -118.2436849,
        "value": 10,
        "sales": "$250K",
        "hourlyWalkIns": "305",
        "StsRatio": "287",
        "storeLocation": "SOUTH PARK",
        "storeType": "PINK STORE",
        "storeFootage": "5500 sq. ft."
      },
      {
        "id": "store-2",
        "name": "Chicago",
        "label": "Chicago",
        "lat": 41.8781136,
        "lon": -87.6297982,
        "value": 10,
        "sales": "$250K",
        "hourlyWalkIns": "305",
        "StsRatio": "287",
        "storeLocation": "SOUTH PARK",
        "storeType": "PINK STORE",
        "storeFootage": "5500 sq. ft."
      },
      {
        "id": "store-3",
        "name": "Houston",
        "label": "Houston",
        "lat": 29.7604267,
        "lon": -95.3698028,
        "value": 10,
        "sales": "$250K",
        "hourlyWalkIns": "305",
        "StsRatio": "287",
        "storeLocation": "SOUTH PARK",
        "storeType": "PINK STORE",
        "storeFootage": "5500 sq. ft."
      },
      {
        "id": "store-4",
        "name": "Philadelphia",
        "label": "Philadelphia",
        "lat": 39.9525839,
        "lon": -75.1652215,
        "value": 10,
        "sales": "$250K",
        "hourlyWalkIns": "305",
        "StsRatio": "287",
        "storeLocation": "SOUTH PARK",
        "storeType": "PINK STORE",
        "storeFootage": "5500 sq. ft."
      },
      {
        "id": "store-5",
        "name": "Phoenix",
        "label": "Phoenix",
        "lat": 33.4483771,
        "lon": -112.0740373,
        "value": 10,
        "sales": "$250K",
        "hourlyWalkIns": "305",
        "StsRatio": "287",
        "storeLocation": "SOUTH PARK",
        "storeType": "PINK STORE",
        "storeFootage": "5500 sq. ft."
      },
      {
        "id": "store-6",
        "name": "San Antonio",
        "label": "San Antonio",
        "lat": 29.4241219,
        "lon": -98.49362819999999,
        "value": 10,
        "sales": "$250K",
        "hourlyWalkIns": "305",
        "StsRatio": "287",
        "storeLocation": "SOUTH PARK",
        "storeType": "PINK STORE",
        "storeFootage": "5500 sq. ft."
      },
      {
        "id": "store-7",
        "name": "San Diego",
        "label": "San Diego",
        "lat": 32.715738,
        "lon": -117.1610838,
        "value": 10,
        "sales": "$250K",
        "hourlyWalkIns": "305",
        "StsRatio": "287",
        "storeLocation": "SOUTH PARK",
        "storeType": "PINK STORE",
        "storeFootage": "5500 sq. ft."
      },
      {
        "id": "store-8",
        "name": "Dallas",
        "label": "Dallas",
        "lat": 32.7766642,
        "lon": -96.79698789999999,
        "value": 10,
        "sales": "$250K",
        "hourlyWalkIns": "305",
        "StsRatio": "287",
        "storeLocation": "SOUTH PARK",
        "storeType": "PINK STORE",
        "storeFootage": "5500 sq. ft."
      },
      {
        "id": "store-9",
        "name": "San Jose",
        "label": "San Jose",
        "lat": 37.3382082,
        "lon": -121.8863286,
        "value": 10,
        "sales": "$250K",
        "hourlyWalkIns": "305",
        "StsRatio": "287",
        "storeLocation": "SOUTH PARK",
        "storeType": "PINK STORE",
        "storeFootage": "5500 sq. ft."
      },
      {
        "id": "store-10",
        "name": "Austin",
        "label": "Austin",
        "lat": 30.267153,
        "lon": -97.7430608,
        "value": 10,
        "sales": "$250K",
        "hourlyWalkIns": "305",
        "StsRatio": "287",
        "storeLocation": "SOUTH PARK",
        "storeType": "PINK STORE",
        "storeFootage": "5500 sq. ft."
      },
      {
        "id": "store-11",
        "name": "Indianapolis",
        "label": "Indianapolis",
        "lat": 39.768403,
        "lon": -86.158068,
        "value": 10,
        "sales": "$250K",
        "hourlyWalkIns": "305",
        "StsRatio": "287",
        "storeLocation": "SOUTH PARK",
        "storeType": "PINK STORE",
        "storeFootage": "5500 sq. ft."
      },
      {
        "id": "store-12",
        "name": "Jacksonville",
        "label": "Jacksonville",
        "lat": 30.3321838,
        "lon": -81.65565099999999,
        "value": 10,
        "sales": "$250K",
        "hourlyWalkIns": "305",
        "StsRatio": "287",
        "storeLocation": "SOUTH PARK",
        "storeType": "PINK STORE",
        "storeFootage": "5500 sq. ft."
      },
      {
        "id": "store-13",
        "name": "San Francisco",
        "label": "San Francisco",
        "lat": 37.7749295,
        "lon": -122.4194155,
        "value": 10,
        "sales": "$250K",
        "hourlyWalkIns": "305",
        "StsRatio": "287",
        "storeLocation": "SOUTH PARK",
        "storeType": "PINK STORE",
        "storeFootage": "5500 sq. ft."
      },
      {
        "id": "store-14",
        "name": "Columbus",
        "label": "Columbus",
        "lat": 39.9611755,
        "lon": -82.99879419999999,
        "value": 10,
        "sales": "$250K",
        "hourlyWalkIns": "305",
        "StsRatio": "287",
        "storeLocation": "SOUTH PARK",
        "storeType": "PINK STORE",
        "storeFootage": "5500 sq. ft."
      },
      {
        "id": "store-15",
        "name": "Charlotte",
        "label": "Charlotte",
        "lat": 35.2270869,
        "lon": -80.8431267,
        "value": 10,
        "sales": "$250K",
        "hourlyWalkIns": "305",
        "StsRatio": "287",
        "storeLocation": "SOUTH PARK",
        "storeType": "PINK STORE",
        "storeFootage": "5500 sq. ft."
      },
      {
        "id": "store-16",
        "name": "Fort Worth",
        "label": "Fort Worth",
        "lat": 32.7554883,
        "lon": -97.3307658,
        "value": 10,
        "sales": "$250K",
        "hourlyWalkIns": "305",
        "StsRatio": "287",
        "storeLocation": "SOUTH PARK",
        "storeType": "PINK STORE",
        "storeFootage": "5500 sq. ft."
      },
      {
        "id": "store-17",
        "name": "Detroit",
        "label": "Detroit",
        "lat": 42.331427,
        "lon": -83.0457538,
        "value": 10,
        "sales": "$250K",
        "hourlyWalkIns": "305",
        "StsRatio": "287",
        "storeLocation": "SOUTH PARK",
        "storeType": "PINK STORE",
        "storeFootage": "5500 sq. ft."
      },
      {
        "id": "store-18",
        "name": "El Paso",
        "label": "El Paso",
        "lat": 31.7775757,
        "lon": -106.4424559,
        "value": 10,
        "sales": "$250K",
        "hourlyWalkIns": "305",
        "StsRatio": "287",
        "storeLocation": "SOUTH PARK",
        "storeType": "PINK STORE",
        "storeFootage": "5500 sq. ft."
      },
      {
        "id": "store-19",
        "name": "Memphis",
        "label": "Memphis",
        "lat": 35.1495343,
        "lon": -90.0489801,
        "value": 10,
        "sales": "$250K",
        "hourlyWalkIns": "305",
        "StsRatio": "287",
        "storeLocation": "SOUTH PARK",
        "storeType": "PINK STORE",
        "storeFootage": "5500 sq. ft."
      },
      {
        "id": "store-20",
        "name": "Seattle",
        "label": "Seattle",
        "lat": 47.6062095,
        "lon": -122.3320708,
        "value": 10,
        "sales": "$250K",
        "hourlyWalkIns": "305",
        "StsRatio": "287",
        "storeLocation": "SOUTH PARK",
        "storeType": "PINK STORE",
        "storeFootage": "5500 sq. ft."
      },
      {
        "id": "store-21",
        "name": "Denver",
        "label": "Denver",
        "lat": 39.7392358,
        "lon": -104.990251,
        "value": 10,
        "sales": "$250K",
        "hourlyWalkIns": "305",
        "StsRatio": "287",
        "storeLocation": "SOUTH PARK",
        "storeType": "PINK STORE",
        "storeFootage": "5500 sq. ft."
      },
      {
        "id": "store-22",
        "name": "Washington",
        "label": "Washington",
        "lat": 38.9071923,
        "lon": -77.0368707,
        "value": 10,
        "sales": "$250K",
        "hourlyWalkIns": "305",
        "StsRatio": "287",
        "storeLocation": "SOUTH PARK",
        "storeType": "PINK STORE",
        "storeFootage": "5500 sq. ft."
      },
      {
        "id": "store-23",
        "name": "Boston",
        "label": "Boston",
        "lat": 42.3600825,
        "lon": -71.0588801,
        "value": 10,
        "sales": "$250K",
        "hourlyWalkIns": "305",
        "StsRatio": "287",
        "storeLocation": "SOUTH PARK",
        "storeType": "PINK STORE",
        "storeFootage": "5500 sq. ft."
      },
      {
        "id": "store-24",
        "name": "Nashville-Davidson",
        "label": "Nashville-Davidson",
        "lat": 36.1626638,
        "lon": -86.7816016,
        "value": 10,
        "sales": "$250K",
        "hourlyWalkIns": "305",
        "StsRatio": "287",
        "storeLocation": "SOUTH PARK",
        "storeType": "PINK STORE",
        "storeFootage": "5500 sq. ft."
      },
      {
        "id": "store-25",
        "name": "Baltimore",
        "label": "Baltimore",
        "lat": 39.2903848,
        "lon": -76.6121893,
        "value": 10,
        "sales": "$250K",
        "hourlyWalkIns": "305",
        "StsRatio": "287",
        "storeLocation": "SOUTH PARK",
        "storeType": "PINK STORE",
        "storeFootage": "5500 sq. ft."
      },
      {
        "id": "store-26",
        "name": "Oklahoma City",
        "label": "Oklahoma City",
        "lat": 35.4675602,
        "lon": -97.5164276,
        "value": 10,
        "sales": "$250K",
        "hourlyWalkIns": "305",
        "StsRatio": "287",
        "storeLocation": "SOUTH PARK",
        "storeType": "PINK STORE",
        "storeFootage": "5500 sq. ft."
      },
      {
        "id": "store-27",
        "name": "Louisville/Jefferson County",
        "label": "Louisville/Jefferson County",
        "lat": 38.2526647,
        "lon": -85.7584557,
        "value": 10,
        "sales": "$250K",
        "hourlyWalkIns": "305",
        "StsRatio": "287",
        "storeLocation": "SOUTH PARK",
        "storeType": "PINK STORE",
        "storeFootage": "5500 sq. ft."
      },
      {
        "id": "store-28",
        "name": "Portland",
        "label": "Portland",
        "lat": 45.5230622,
        "lon": -122.6764816,
        "value": 10,
        "sales": "$250K",
        "hourlyWalkIns": "305",
        "StsRatio": "287",
        "storeLocation": "SOUTH PARK",
        "storeType": "PINK STORE",
        "storeFootage": "5500 sq. ft."
      },
      {
        "id": "store-29",
        "name": "Las Vegas",
        "label": "Las Vegas",
        "lat": 36.1699412,
        "lon": -115.1398296,
        "value": 10,
        "sales": "$250K",
        "hourlyWalkIns": "305",
        "StsRatio": "287",
        "storeLocation": "SOUTH PARK",
        "storeType": "PINK STORE",
        "storeFootage": "5500 sq. ft."
      },
      {
        "id": "store-30",
        "name": "Milwaukee",
        "label": "Milwaukee",
        "lat": 43.0389025,
        "lon": -87.9064736,
        "value": 10,
        "sales": "$250K",
        "hourlyWalkIns": "305",
        "StsRatio": "287",
        "storeLocation": "SOUTH PARK",
        "storeType": "PINK STORE",
        "storeFootage": "5500 sq. ft."
      },
      {
        "id": "store-31",
        "name": "Albuquerque",
        "label": "Albuquerque",
        "lat": 35.0853336,
        "lon": -106.6055534,
        "value": 10,
        "sales": "$250K",
        "hourlyWalkIns": "305",
        "StsRatio": "287",
        "storeLocation": "SOUTH PARK",
        "storeType": "PINK STORE",
        "storeFootage": "5500 sq. ft."
      },
      {
        "id": "store-32",
        "name": "Tucson",
        "label": "Tucson",
        "lat": 32.2217429,
        "lon": -110.926479,
        "value": 10,
        "sales": "$250K",
        "hourlyWalkIns": "305",
        "StsRatio": "287",
        "storeLocation": "SOUTH PARK",
        "storeType": "PINK STORE",
        "storeFootage": "5500 sq. ft."
      },
      {
        "id": "store-33",
        "name": "Fresno",
        "label": "Fresno",
        "lat": 36.7468422,
        "lon": -119.7725868,
        "value": 10,
        "sales": "$250K",
        "hourlyWalkIns": "305",
        "StsRatio": "287",
        "storeLocation": "SOUTH PARK",
        "storeType": "PINK STORE",
        "storeFootage": "5500 sq. ft."
      },
      {
        "id": "store-34",
        "name": "Sacramento",
        "label": "Sacramento",
        "lat": 38.5815719,
        "lon": -121.4943996,
        "value": 10,
        "sales": "$250K",
        "hourlyWalkIns": "305",
        "StsRatio": "287",
        "storeLocation": "SOUTH PARK",
        "storeType": "PINK STORE",
        "storeFootage": "5500 sq. ft."
      },
      {
        "id": "store-35",
        "name": "Long Beach",
        "label": "Long Beach",
        "lat": 33.7700504,
        "lon": -118.1937395,
        "value": 10,
        "sales": "$250K",
        "hourlyWalkIns": "305",
        "StsRatio": "287",
        "storeLocation": "SOUTH PARK",
        "storeType": "PINK STORE",
        "storeFootage": "5500 sq. ft."
      },
      {
        "id": "store-36",
        "name": "Kansas City",
        "label": "Kansas City",
        "lat": 39.0997265,
        "lon": -94.5785667,
        "value": 10,
        "sales": "$250K",
        "hourlyWalkIns": "305",
        "StsRatio": "287",
        "storeLocation": "SOUTH PARK",
        "storeType": "PINK STORE",
        "storeFootage": "5500 sq. ft."
      },
      {
        "id": "store-37",
        "name": "Mesa",
        "label": "Mesa",
        "lat": 33.4151843,
        "lon": -111.8314724,
        "value": 10,
        "sales": "$250K",
        "hourlyWalkIns": "305",
        "StsRatio": "287",
        "storeLocation": "SOUTH PARK",
        "storeType": "PINK STORE",
        "storeFootage": "5500 sq. ft."
      },
      {
        "id": "store-38",
        "name": "Virginia Beach",
        "label": "Virginia Beach",
        "lat": 36.8529263,
        "lon": -75.97798499999999,
        "value": 10,
        "sales": "$250K",
        "hourlyWalkIns": "305",
        "StsRatio": "287",
        "storeLocation": "SOUTH PARK",
        "storeType": "PINK STORE",
        "storeFootage": "5500 sq. ft."
      },
      {
        "id": "store-39",
        "name": "Atlanta",
        "label": "Atlanta",
        "lat": 33.7489954,
        "lon": -84.3879824,
        "value": 10,
        "sales": "$250K",
        "hourlyWalkIns": "305",
        "StsRatio": "287",
        "storeLocation": "SOUTH PARK",
        "storeType": "PINK STORE",
        "storeFootage": "5500 sq. ft."
      },
      {
        "id": "store-40",
        "name": "Colorado Springs",
        "label": "Colorado Springs",
        "lat": 38.8338816,
        "lon": -104.8213634,
        "value": 10,
        "sales": "$250K",
        "hourlyWalkIns": "305",
        "StsRatio": "287",
        "storeLocation": "SOUTH PARK",
        "storeType": "PINK STORE",
        "storeFootage": "5500 sq. ft."
      },
      {
        "id": "store-41",
        "name": "Omaha",
        "label": "Omaha",
        "lat": 41.2523634,
        "lon": -95.99798829999999,
        "value": 10,
        "sales": "$250K",
        "hourlyWalkIns": "305",
        "StsRatio": "287",
        "storeLocation": "SOUTH PARK",
        "storeType": "PINK STORE",
        "storeFootage": "5500 sq. ft."
      },
      {
        "id": "store-42",
        "name": "Raleigh",
        "label": "Raleigh",
        "lat": 35.7795897,
        "lon": -78.6381787,
        "value": 10,
        "sales": "$250K",
        "hourlyWalkIns": "305",
        "StsRatio": "287",
        "storeLocation": "SOUTH PARK",
        "storeType": "PINK STORE",
        "storeFootage": "5500 sq. ft."
      },
      {
        "id": "store-43",
        "name": "Miami",
        "label": "Miami",
        "lat": 25.7616798,
        "lon": -80.1917902,
        "value": 10,
        "sales": "$250K",
        "hourlyWalkIns": "305",
        "StsRatio": "287",
        "storeLocation": "SOUTH PARK",
        "storeType": "PINK STORE",
        "storeFootage": "5500 sq. ft."
      },
      {
        "id": "store-44",
        "name": "Oakland",
        "label": "Oakland",
        "lat": 37.8043637,
        "lon": -122.2711137,
        "value": 10,
        "sales": "$250K",
        "hourlyWalkIns": "305",
        "StsRatio": "287",
        "storeLocation": "SOUTH PARK",
        "storeType": "PINK STORE",
        "storeFootage": "5500 sq. ft."
      },
      {
        "id": "store-45",
        "name": "Minneapolis",
        "label": "Minneapolis",
        "lat": 44.977753,
        "lon": -93.2650108,
        "value": 10,
        "sales": "$250K",
        "hourlyWalkIns": "305",
        "StsRatio": "287",
        "storeLocation": "SOUTH PARK",
        "storeType": "PINK STORE",
        "storeFootage": "5500 sq. ft."
      },
      {
        "id": "store-46",
        "name": "Tulsa",
        "label": "Tulsa",
        "lat": 36.1539816,
        "lon": -95.99277500000001,
        "value": 10,
        "sales": "$250K",
        "hourlyWalkIns": "305",
        "StsRatio": "287",
        "storeLocation": "SOUTH PARK",
        "storeType": "PINK STORE",
        "storeFootage": "5500 sq. ft."
      },
      {
        "id": "store-47",
        "name": "Cleveland",
        "label": "Cleveland",
        "lat": 41.49932,
        "lon": -81.6943605,
        "value": 10,
        "sales": "$250K",
        "hourlyWalkIns": "305",
        "StsRatio": "287",
        "storeLocation": "SOUTH PARK",
        "storeType": "PINK STORE",
        "storeFootage": "5500 sq. ft."
      },
      {
        "id": "store-48",
        "name": "Wichita",
        "label": "Wichita",
        "lat": 37.688889,
        "lon": -97.336111,
        "value": 10,
        "sales": "$250K",
        "hourlyWalkIns": "305",
        "StsRatio": "287",
        "storeLocation": "SOUTH PARK",
        "storeType": "PINK STORE",
        "storeFootage": "5500 sq. ft."
      },
      {
        "id": "store-49",
        "name": "Arlington",
        "label": "Arlington",
        "lat": 32.735687,
        "lon": -97.10806559999999,
        "value": 10,
        "sales": "$250K",
        "hourlyWalkIns": "305",
        "StsRatio": "287",
        "storeLocation": "SOUTH PARK",
        "storeType": "PINK STORE",
        "storeFootage": "5500 sq. ft."
      },
      {
        "id": "store-50",
        "name": "New Orleans",
        "label": "New Orleans",
        "lat": 29.95106579999999,
        "lon": -90.0715323,
        "value": 10,
        "sales": "$250K",
        "hourlyWalkIns": "305",
        "StsRatio": "287",
        "storeLocation": "SOUTH PARK",
        "storeType": "PINK STORE",
        "storeFootage": "5500 sq. ft."
      },
      {
        "id": "store-51",
        "name": "Bakersfield",
        "label": "Bakersfield",
        "lat": 35.3732921,
        "lon": -119.0187125,
        "value": 10,
        "sales": "$250K",
        "hourlyWalkIns": "305",
        "StsRatio": "287",
        "storeLocation": "SOUTH PARK",
        "storeType": "PINK STORE",
        "storeFootage": "5500 sq. ft."
      },
      {
        "id": "store-52",
        "name": "Tampa",
        "label": "Tampa",
        "lat": 27.950575,
        "lon": -82.4571776,
        "value": 10,
        "sales": "$250K",
        "hourlyWalkIns": "305",
        "StsRatio": "287",
        "storeLocation": "SOUTH PARK",
        "storeType": "PINK STORE",
        "storeFootage": "5500 sq. ft."
      },
      {
        "id": "store-53",
        "name": "Honolulu",
        "label": "Honolulu",
        "lat": 21.3069444,
        "lon": -157.8583333,
        "value": 10,
        "sales": "$250K",
        "hourlyWalkIns": "305",
        "StsRatio": "287",
        "storeLocation": "SOUTH PARK",
        "storeType": "PINK STORE",
        "storeFootage": "5500 sq. ft."
      },
      {
        "id": "store-54",
        "name": "Aurora",
        "label": "Aurora",
        "lat": 39.7294319,
        "lon": -104.8319195,
        "value": 10,
        "sales": "$250K",
        "hourlyWalkIns": "305",
        "StsRatio": "287",
        "storeLocation": "SOUTH PARK",
        "storeType": "PINK STORE",
        "storeFootage": "5500 sq. ft."
      },
      {
        "id": "store-55",
        "name": "Anaheim",
        "label": "Anaheim",
        "lat": 33.8352932,
        "lon": -117.9145036,
        "value": 10,
        "sales": "$250K",
        "hourlyWalkIns": "305",
        "StsRatio": "287",
        "storeLocation": "SOUTH PARK",
        "storeType": "PINK STORE",
        "storeFootage": "5500 sq. ft."
      },
      {
        "id": "store-56",
        "name": "Santa Ana",
        "label": "Santa Ana",
        "lat": 33.7455731,
        "lon": -117.8678338,
        "value": 10,
        "sales": "$250K",
        "hourlyWalkIns": "305",
        "StsRatio": "287",
        "storeLocation": "SOUTH PARK",
        "storeType": "PINK STORE",
        "storeFootage": "5500 sq. ft."
      },
      {
        "id": "store-57",
        "name": "St. Louis",
        "label": "St. Louis",
        "lat": 38.6270025,
        "lon": -90.19940419999999,
        "value": 10,
        "sales": "$250K",
        "hourlyWalkIns": "305",
        "StsRatio": "287",
        "storeLocation": "SOUTH PARK",
        "storeType": "PINK STORE",
        "storeFootage": "5500 sq. ft."
      },
      {
        "id": "store-58",
        "name": "Riverside",
        "label": "Riverside",
        "lat": 33.9533487,
        "lon": -117.3961564,
        "value": 10,
        "sales": "$250K",
        "hourlyWalkIns": "305",
        "StsRatio": "287",
        "storeLocation": "SOUTH PARK",
        "storeType": "PINK STORE",
        "storeFootage": "5500 sq. ft."
      },
      {
        "id": "store-59",
        "name": "Corpus Christi",
        "label": "Corpus Christi",
        "lat": 27.8005828,
        "lon": -97.39638099999999,
        "value": 10,
        "sales": "$250K",
        "hourlyWalkIns": "305",
        "StsRatio": "287",
        "storeLocation": "SOUTH PARK",
        "storeType": "PINK STORE",
        "storeFootage": "5500 sq. ft."
      },
      {
        "id": "store-60",
        "name": "Lexington-Fayette",
        "label": "Lexington-Fayette",
        "lat": 38.0405837,
        "lon": -84.5037164,
        "value": 10,
        "sales": "$250K",
        "hourlyWalkIns": "305",
        "StsRatio": "287",
        "storeLocation": "SOUTH PARK",
        "storeType": "PINK STORE",
        "storeFootage": "5500 sq. ft."
      },
      {
        "id": "store-61",
        "name": "Pittsburgh",
        "label": "Pittsburgh",
        "lat": 40.44062479999999,
        "lon": -79.9958864,
        "value": 10,
        "sales": "$250K",
        "hourlyWalkIns": "305",
        "StsRatio": "287",
        "storeLocation": "SOUTH PARK",
        "storeType": "PINK STORE",
        "storeFootage": "5500 sq. ft."
      },
      {
        "id": "store-62",
        "name": "Anchorage",
        "label": "Anchorage",
        "lat": 61.2180556,
        "lon": -149.9002778,
        "value": 10,
        "sales": "$250K",
        "hourlyWalkIns": "305",
        "StsRatio": "287",
        "storeLocation": "SOUTH PARK",
        "storeType": "PINK STORE",
        "storeFootage": "5500 sq. ft."
      },
      {
        "id": "store-63",
        "name": "Stockton",
        "label": "Stockton",
        "lat": 37.9577016,
        "lon": -121.2907796,
        "value": 10,
        "sales": "$250K",
        "hourlyWalkIns": "305",
        "StsRatio": "287",
        "storeLocation": "SOUTH PARK",
        "storeType": "PINK STORE",
        "storeFootage": "5500 sq. ft."
      },
      {
        "id": "store-64",
        "name": "Cincinnati",
        "label": "Cincinnati",
        "lat": 39.1031182,
        "lon": -84.5120196,
        "value": 10,
        "sales": "$250K",
        "hourlyWalkIns": "305",
        "StsRatio": "287",
        "storeLocation": "SOUTH PARK",
        "storeType": "PINK STORE",
        "storeFootage": "5500 sq. ft."
      },
      {
        "id": "store-65",
        "name": "St. Paul",
        "label": "St. Paul",
        "lat": 44.9537029,
        "lon": -93.0899578,
        "value": 10,
        "sales": "$250K",
        "hourlyWalkIns": "305",
        "StsRatio": "287",
        "storeLocation": "SOUTH PARK",
        "storeType": "PINK STORE",
        "storeFootage": "5500 sq. ft."
      },
      {
        "id": "store-66",
        "name": "Toledo",
        "label": "Toledo",
        "lat": 41.6639383,
        "lon": -83.55521200000001,
        "value": 10,
        "sales": "$250K",
        "hourlyWalkIns": "305",
        "StsRatio": "287",
        "storeLocation": "SOUTH PARK",
        "storeType": "PINK STORE",
        "storeFootage": "5500 sq. ft."
      },
      {
        "id": "store-67",
        "name": "Greensboro",
        "label": "Greensboro",
        "lat": 36.0726354,
        "lon": -79.7919754,
        "value": 10,
        "sales": "$250K",
        "hourlyWalkIns": "305",
        "StsRatio": "287",
        "storeLocation": "SOUTH PARK",
        "storeType": "PINK STORE",
        "storeFootage": "5500 sq. ft."
      },
      {
        "id": "store-68",
        "name": "Newark",
        "label": "Newark",
        "lat": 40.735657,
        "lon": -74.1723667,
        "value": 10,
        "sales": "$250K",
        "hourlyWalkIns": "305",
        "StsRatio": "287",
        "storeLocation": "SOUTH PARK",
        "storeType": "PINK STORE",
        "storeFootage": "5500 sq. ft."
      },
      {
        "id": "store-69",
        "name": "Plano",
        "label": "Plano",
        "lat": 33.0198431,
        "lon": -96.6988856,
        "value": 10,
        "sales": "$250K",
        "hourlyWalkIns": "305",
        "StsRatio": "287",
        "storeLocation": "SOUTH PARK",
        "storeType": "PINK STORE",
        "storeFootage": "5500 sq. ft."
      },
      {
        "id": "store-70",
        "name": "Henderson",
        "label": "Henderson",
        "lat": 36.0395247,
        "lon": -114.9817213,
        "value": 10,
        "sales": "$250K",
        "hourlyWalkIns": "305",
        "StsRatio": "287",
        "storeLocation": "SOUTH PARK",
        "storeType": "PINK STORE",
        "storeFootage": "5500 sq. ft."
      },
      {
        "id": "store-71",
        "name": "Lincoln",
        "label": "Lincoln",
        "lat": 40.8257625,
        "lon": -96.6851982,
        "value": 10,
        "sales": "$250K",
        "hourlyWalkIns": "305",
        "StsRatio": "287",
        "storeLocation": "SOUTH PARK",
        "storeType": "PINK STORE",
        "storeFootage": "5500 sq. ft."
      },
      {
        "id": "store-72",
        "name": "Buffalo",
        "label": "Buffalo",
        "lat": 42.88644679999999,
        "lon": -78.8783689,
        "value": 10,
        "sales": "$250K",
        "hourlyWalkIns": "305",
        "StsRatio": "287",
        "storeLocation": "SOUTH PARK",
        "storeType": "PINK STORE",
        "storeFootage": "5500 sq. ft."
      },
      {
        "id": "store-74",
        "name": "Chula Vista",
        "label": "Chula Vista",
        "lat": 32.6400541,
        "lon": -117.0841955,
        "value": 10,
        "sales": "$250K",
        "hourlyWalkIns": "305",
        "StsRatio": "287",
        "storeLocation": "SOUTH PARK",
        "storeType": "PINK STORE",
        "storeFootage": "5500 sq. ft."
      },
      {
        "id": "store-75",
        "name": "Fort Wayne",
        "label": "Fort Wayne",
        "lat": 41.079273,
        "lon": -85.1393513,
        "value": 10,
        "sales": "$250K",
        "hourlyWalkIns": "305",
        "StsRatio": "287",
        "storeLocation": "SOUTH PARK",
        "storeType": "PINK STORE",
        "storeFootage": "5500 sq. ft."
      },
      {
        "id": "store-76",
        "name": "Orlando",
        "label": "Orlando",
        "lat": 28.5383355,
        "lon": -81.3792365,
        "value": 10,
        "sales": "$250K",
        "hourlyWalkIns": "305",
        "StsRatio": "287",
        "storeLocation": "SOUTH PARK",
        "storeType": "PINK STORE",
        "storeFootage": "5500 sq. ft."
      },
      {
        "id": "store-77",
        "name": "St. Petersburg",
        "label": "St. Petersburg",
        "lat": 27.773056,
        "lon": -82.64,
        "value": 10,
        "sales": "$250K",
        "hourlyWalkIns": "305",
        "StsRatio": "287",
        "storeLocation": "SOUTH PARK",
        "storeType": "PINK STORE",
        "storeFootage": "5500 sq. ft."
      },
      {
        "id": "store-78",
        "name": "Chandler",
        "label": "Chandler",
        "lat": 33.3061605,
        "lon": -111.8412502,
        "value": 10,
        "sales": "$250K",
        "hourlyWalkIns": "305",
        "StsRatio": "287",
        "storeLocation": "SOUTH PARK",
        "storeType": "PINK STORE",
        "storeFootage": "5500 sq. ft."
      },
      {
        "id": "store-79",
        "name": "Laredo",
        "label": "Laredo",
        "lat": 27.5305671,
        "lon": -99.48032409999999,
        "value": 10,
        "sales": "$250K",
        "hourlyWalkIns": "305",
        "StsRatio": "287",
        "storeLocation": "SOUTH PARK",
        "storeType": "PINK STORE",
        "storeFootage": "5500 sq. ft."
      },
      {
        "id": "store-80",
        "name": "Norfolk",
        "label": "Norfolk",
        "lat": 36.8507689,
        "lon": -76.28587259999999,
        "value": 10,
        "sales": "$250K",
        "hourlyWalkIns": "305",
        "StsRatio": "287",
        "storeLocation": "SOUTH PARK",
        "storeType": "PINK STORE",
        "storeFootage": "5500 sq. ft."
      },
      {
        "id": "store-81",
        "name": "Durham",
        "label": "Durham",
        "lat": 35.9940329,
        "lon": -78.898619,
        "value": 10,
        "sales": "$250K",
        "hourlyWalkIns": "305",
        "StsRatio": "287",
        "storeLocation": "SOUTH PARK",
        "storeType": "PINK STORE",
        "storeFootage": "5500 sq. ft."
      },
      {
        "id": "store-82",
        "name": "Madison",
        "label": "Madison",
        "lat": 43.0730517,
        "lon": -89.4012302,
        "value": 10,
        "sales": "$250K",
        "hourlyWalkIns": "305",
        "StsRatio": "287",
        "storeLocation": "SOUTH PARK",
        "storeType": "PINK STORE",
        "storeFootage": "5500 sq. ft."
      },
      {
        "id": "store-83",
        "name": "Lubbock",
        "label": "Lubbock",
        "lat": 33.5778631,
        "lon": -101.8551665,
        "value": 10,
        "sales": "$250K",
        "hourlyWalkIns": "305",
        "StsRatio": "287",
        "storeLocation": "SOUTH PARK",
        "storeType": "PINK STORE",
        "storeFootage": "5500 sq. ft."
      },
      {
        "id": "store-84",
        "name": "Irvine",
        "label": "Irvine",
        "lat": 33.6839473,
        "lon": -117.7946942,
        "value": 10,
        "sales": "$250K",
        "hourlyWalkIns": "305",
        "StsRatio": "287",
        "storeLocation": "SOUTH PARK",
        "storeType": "PINK STORE",
        "storeFootage": "5500 sq. ft."
      },
      {
        "id": "store-85",
        "name": "Winston-Salem",
        "label": "Winston-Salem",
        "lat": 36.09985959999999,
        "lon": -80.244216,
        "value": 10,
        "sales": "$250K",
        "hourlyWalkIns": "305",
        "StsRatio": "287",
        "storeLocation": "SOUTH PARK",
        "storeType": "PINK STORE",
        "storeFootage": "5500 sq. ft."
      },
      {
        "id": "store-86",
        "name": "Glendale",
        "label": "Glendale",
        "lat": 33.5386523,
        "lon": -112.1859866,
        "value": 10,
        "sales": "$250K",
        "hourlyWalkIns": "305",
        "StsRatio": "287",
        "storeLocation": "SOUTH PARK",
        "storeType": "PINK STORE",
        "storeFootage": "5500 sq. ft."
      },
      {
        "id": "store-87",
        "name": "Garland",
        "label": "Garland",
        "lat": 32.912624,
        "lon": -96.63888329999999,
        "value": 10,
        "sales": "$250K",
        "hourlyWalkIns": "305",
        "StsRatio": "287",
        "storeLocation": "SOUTH PARK",
        "storeType": "PINK STORE",
        "storeFootage": "5500 sq. ft."
      },
      {
        "id": "store-88",
        "name": "Hialeah",
        "label": "Hialeah",
        "lat": 25.8575963,
        "lon": -80.2781057,
        "value": 10,
        "sales": "$250K",
        "hourlyWalkIns": "305",
        "StsRatio": "287",
        "storeLocation": "SOUTH PARK",
        "storeType": "PINK STORE",
        "storeFootage": "5500 sq. ft."
      },
      {
        "id": "store-89",
        "name": "Reno",
        "label": "Reno",
        "lat": 39.5296329,
        "lon": -119.8138027,
        "value": 10,
        "sales": "$250K",
        "hourlyWalkIns": "305",
        "StsRatio": "287",
        "storeLocation": "SOUTH PARK",
        "storeType": "PINK STORE",
        "storeFootage": "5500 sq. ft."
      },
      {
        "id": "store-90",
        "name": "Chesapeake",
        "label": "Chesapeake",
        "lat": 36.7682088,
        "lon": -76.2874927,
        "value": 10,
        "sales": "$250K",
        "hourlyWalkIns": "305",
        "StsRatio": "287",
        "storeLocation": "SOUTH PARK",
        "storeType": "PINK STORE",
        "storeFootage": "5500 sq. ft."
      },
      {
        "id": "store-91",
        "name": "Gilbert",
        "label": "Gilbert",
        "lat": 33.3528264,
        "lon": -111.789027,
        "value": 10,
        "sales": "$250K",
        "hourlyWalkIns": "305",
        "StsRatio": "287",
        "storeLocation": "SOUTH PARK",
        "storeType": "PINK STORE",
        "storeFootage": "5500 sq. ft."
      },
      {
        "id": "store-92",
        "name": "Baton Rouge",
        "label": "Baton Rouge",
        "lat": 30.4582829,
        "lon": -91.1403196,
        "value": 10,
        "sales": "$250K",
        "hourlyWalkIns": "305",
        "StsRatio": "287",
        "storeLocation": "SOUTH PARK",
        "storeType": "PINK STORE",
        "storeFootage": "5500 sq. ft."
      },
      {
        "id": "store-93",
        "name": "Irving",
        "label": "Irving",
        "lat": 32.8140177,
        "lon": -96.9488945,
        "value": 10,
        "sales": "$250K",
        "hourlyWalkIns": "305",
        "StsRatio": "287",
        "storeLocation": "SOUTH PARK",
        "storeType": "PINK STORE",
        "storeFootage": "5500 sq. ft."
      },
      {
        "id": "store-94",
        "name": "Scottsdale",
        "label": "Scottsdale",
        "lat": 33.4941704,
        "lon": -111.9260519,
        "value": 10,
        "sales": "$250K",
        "hourlyWalkIns": "305",
        "StsRatio": "287",
        "storeLocation": "SOUTH PARK",
        "storeType": "PINK STORE",
        "storeFootage": "5500 sq. ft."
      },
      {
        "id": "store-95",
        "name": "North Las Vegas",
        "label": "North Las Vegas",
        "lat": 36.1988592,
        "lon": -115.1175013,
        "value": 10,
        "sales": "$250K",
        "hourlyWalkIns": "305",
        "StsRatio": "287",
        "storeLocation": "SOUTH PARK",
        "storeType": "PINK STORE",
        "storeFootage": "5500 sq. ft."
      },
      {
        "id": "store-96",
        "name": "Fremont",
        "label": "Fremont",
        "lat": 37.5482697,
        "lon": -121.9885719,
        "value": 10,
        "sales": "$250K",
        "hourlyWalkIns": "305",
        "StsRatio": "287",
        "storeLocation": "SOUTH PARK",
        "storeType": "PINK STORE",
        "storeFootage": "5500 sq. ft."
      },
      {
        "id": "store-97",
        "name": "Boise City",
        "label": "Boise City",
        "lat": 43.6187102,
        "lon": -116.2146068,
        "value": 10,
        "sales": "$250K",
        "hourlyWalkIns": "305",
        "StsRatio": "287",
        "storeLocation": "SOUTH PARK",
        "storeType": "PINK STORE",
        "storeFootage": "5500 sq. ft."
      },
      {
        "id": "store-98",
        "name": "Richmond",
        "label": "Richmond",
        "lat": 37.5407246,
        "lon": -77.4360481,
        "value": 10,
        "sales": "$250K",
        "hourlyWalkIns": "305",
        "StsRatio": "287",
        "storeLocation": "SOUTH PARK",
        "storeType": "PINK STORE",
        "storeFootage": "5500 sq. ft."
      },
      {
        "id": "store-99",
        "name": "San Bernardino",
        "label": "San Bernardino",
        "lat": 34.1083449,
        "lon": -117.2897652,
        "value": 10,
        "sales": "$250K",
        "hourlyWalkIns": "305",
        "StsRatio": "287",
        "storeLocation": "SOUTH PARK",
        "storeType": "PINK STORE",
        "storeFootage": "5500 sq. ft."
      },
      {
        "id": "store-100",
        "name": "Birmingham",
        "label": "Birmingham",
        "lat": 33.5206608,
        "lon": -86.80248999999999,
        "value": 10,
        "sales": "$250K",
        "hourlyWalkIns": "305",
        "StsRatio": "287",
        "storeLocation": "SOUTH PARK",
        "storeType": "PINK STORE",
        "storeFootage": "5500 sq. ft."
      },
      {
        "id": "store-101",
        "name": "Spokane",
        "label": "Spokane",
        "lat": 47.6587802,
        "lon": -117.4260466,
        "value": 10,
        "sales": "$250K",
        "hourlyWalkIns": "305",
        "StsRatio": "287",
        "storeLocation": "SOUTH PARK",
        "storeType": "PINK STORE",
        "storeFootage": "5500 sq. ft."
      },
      {
        "id": "store-102",
        "name": "Rochester",
        "label": "Rochester",
        "lat": 43.16103,
        "lon": -77.6109219,
        "value": 10,
        "sales": "$250K",
        "hourlyWalkIns": "305",
        "StsRatio": "287",
        "storeLocation": "SOUTH PARK",
        "storeType": "PINK STORE",
        "storeFootage": "5500 sq. ft."
      },
      {
        "id": "store-103",
        "name": "Des Moines",
        "label": "Des Moines",
        "lat": 41.6005448,
        "lon": -93.6091064,
        "value": 10,
        "sales": "$250K",
        "hourlyWalkIns": "305",
        "StsRatio": "287",
        "storeLocation": "SOUTH PARK",
        "storeType": "PINK STORE",
        "storeFootage": "5500 sq. ft."
      },
      {
        "id": "store-104",
        "name": "Modesto",
        "label": "Modesto",
        "lat": 37.63909719999999,
        "lon": -120.9968782,
        "value": 10,
        "sales": "$250K",
        "hourlyWalkIns": "305",
        "StsRatio": "287",
        "storeLocation": "SOUTH PARK",
        "storeType": "PINK STORE",
        "storeFootage": "5500 sq. ft."
      },
      {
        "id": "store-105",
        "name": "Fayetteville",
        "label": "Fayetteville",
        "lat": 35.0526641,
        "lon": -78.87835849999999,
        "value": 10,
        "sales": "$250K",
        "hourlyWalkIns": "305",
        "StsRatio": "287",
        "storeLocation": "SOUTH PARK",
        "storeType": "PINK STORE",
        "storeFootage": "5500 sq. ft."
      },
      {
        "id": "store-106",
        "name": "Tacoma",
        "label": "Tacoma",
        "lat": 47.2528768,
        "lon": -122.4442906,
        "value": 10,
        "sales": "$250K",
        "hourlyWalkIns": "305",
        "StsRatio": "287",
        "storeLocation": "SOUTH PARK",
        "storeType": "PINK STORE",
        "storeFootage": "5500 sq. ft."
      }
    ]
  }
}
