{
  "title": "Map Leaflet Heat",
  "mode": {
    "heat": true,
    "bars": true
  },
  "toggle": {
    "isVisible": true
  },
  "tooltip": {
    "default": {
      "title": ["Location: {{name}}"],
      "body": ["<span class='metric'>Value: </span><span class='number'>{{value}}</span>"]
    },
    "heat-one": {
      "title": ["Location: {{name}}"],
      "body": ["<span class='metric'>Total Claims</span><span class='number'>{{value}}</span>"]
    },
    "heat-two": {
      "title": ["Location: {{name}}"],
      "body": ["<span class='metric'>Questionable Claims</span><span class='number'>{{value}}</span>"]
    },
    "bars-one": {
      "title": ["Location: {{name}}"],
      "body": ["<span class='metric'>Hurricane Impact</span><span class='number'>{{value}}</span>"]
    }
  },
  "bars": {
    "mapColor": "#8BC3D2",
    "mapStrokeColor": "#FFF",
    "mapOpacity": "0.7",
    "barWidth": "2",
    "barMaxHeight": 40,
    "bottomBarHeight": 4,
    "bottomBarColor": "#596A6D",
    "barColor": "#428DA1",
    "data": ["bars-one"]
  },
  "heat": {
    "colors": ["#47d8c7", "#e3c170", "#fe492b"],
    "data": ["heat-one", "heat-two"]
  },
  "attrs": {
    "width": "100%",
    "height": "100%"
  },
  "data": {
    "heat-one": {
      "title": "Total Claims",
      "prefix": "",
      "sufix": "%",
      "format": "locale",
      "type": "number",
      "data": [
        {
          "id": "store-0",
          "name": "New York",
          "lat": 40.7127837,
          "lon": -74.0059413,
          "value": "8405837"
        },
        {
          "id": "store-1",
          "name": "Los Angeles",
          "lat": 34.0522342,
          "lon": -118.2436849,
          "value": "3884307"
        },
        {
          "id": "store-2",
          "name": "Chicago",
          "lat": 41.8781136,
          "lon": -87.6297982,
          "value": "2718782"
        },
        {
          "id": "store-3",
          "name": "Houston",
          "lat": 29.7604267,
          "lon": -95.3698028,
          "value": "2195914"
        },
        {
          "id": "store-4",
          "name": "Philadelphia",
          "lat": 39.9525839,
          "lon": -75.1652215,
          "value": "1553165"
        },
        {
          "id": "store-5",
          "name": "Phoenix",
          "lat": 33.4483771,
          "lon": -112.0740373,
          "value": "1513367"
        },
        {
          "id": "store-6",
          "name": "San Antonio",
          "lat": 29.4241219,
          "lon": -98.49362819999999,
          "value": "1409019"
        },
        {
          "id": "store-7",
          "name": "San Diego",
          "lat": 32.715738,
          "lon": -117.1610838,
          "value": "1355896"
        },
        {
          "id": "store-8",
          "name": "Dallas",
          "lat": 32.7766642,
          "lon": -96.79698789999999,
          "value": "1257676"
        },
        {
          "id": "store-9",
          "name": "San Jose",
          "lat": 37.3382082,
          "lon": -121.8863286,
          "value": "998537"
        },
        {
          "id": "store-10",
          "name": "Austin",
          "lat": 30.267153,
          "lon": -97.7430608,
          "value": "885400"
        },
        {
          "id": "store-11",
          "name": "Indianapolis",
          "lat": 39.768403,
          "lon": -86.158068,
          "value": "843393"
        },
        {
          "id": "store-12",
          "name": "Jacksonville",
          "lat": 30.3321838,
          "lon": -81.65565099999999,
          "value": "842583"
        },
        {
          "id": "store-13",
          "name": "San Francisco",
          "lat": 37.7749295,
          "lon": -122.4194155,
          "value": "837442"
        },
        {
          "id": "store-14",
          "name": "Columbus",
          "lat": 39.9611755,
          "lon": -82.99879419999999,
          "value": "822553"
        },
        {
          "id": "store-15",
          "name": "Charlotte",
          "lat": 35.2270869,
          "lon": -80.8431267,
          "value": "792862"
        },
        {
          "id": "store-16",
          "name": "Fort Worth",
          "lat": 32.7554883,
          "lon": -97.3307658,
          "value": "792727"
        },
        {
          "id": "store-17",
          "name": "Detroit",
          "lat": 42.331427,
          "lon": -83.0457538,
          "value": "688701"
        },
        {
          "id": "store-18",
          "name": "El Paso",
          "lat": 31.7775757,
          "lon": -106.4424559,
          "value": "674433"
        },
        {
          "id": "store-19",
          "name": "Memphis",
          "lat": 35.1495343,
          "lon": -90.0489801,
          "value": "653450"
        },
        {
          "id": "store-20",
          "name": "Seattle",
          "lat": 47.6062095,
          "lon": -122.3320708,
          "value": "652405"
        },
        {
          "id": "store-21",
          "name": "Denver",
          "lat": 39.7392358,
          "lon": -104.990251,
          "value": "649495"
        },
        {
          "id": "store-22",
          "name": "Washington",
          "lat": 38.9071923,
          "lon": -77.0368707,
          "value": "646449"
        },
        {
          "id": "store-23",
          "name": "Boston",
          "lat": 42.3600825,
          "lon": -71.0588801,
          "value": "645966"
        },
        {
          "id": "store-24",
          "name": "Nashville-Davidson",
          "lat": 36.1626638,
          "lon": -86.7816016,
          "value": "634464"
        },
        {
          "id": "store-25",
          "name": "Baltimore",
          "lat": 39.2903848,
          "lon": -76.6121893,
          "value": "622104"
        },
        {
          "id": "store-26",
          "name": "Oklahoma City",
          "lat": 35.4675602,
          "lon": -97.5164276,
          "value": "610613"
        },
        {
          "id": "store-27",
          "name": "Louisville/Jefferson County",
          "lat": 38.2526647,
          "lon": -85.7584557,
          "value": "609893"
        },
        {
          "id": "store-28",
          "name": "Portland",
          "lat": 45.5230622,
          "lon": -122.6764816,
          "value": "609456"
        }
      ]
    },
    "heat-two": {
      "title": "Questionable Claims",
      "prefix": "",
      "sufix": "%",
      "format": "locale",
      "type": "number",
      "data": [
        {
          "id": "store-43",
          "name": "Miami",
          "lat": 25.7616798,
          "lon": -80.1917902,
          "value": "417650"
        },
        {
          "id": "store-44",
          "name": "Oakland",
          "lat": 37.8043637,
          "lon": -122.2711137,
          "value": "406253"
        },
        {
          "id": "store-45",
          "name": "Minneapolis",
          "lat": 44.977753,
          "lon": -93.2650108,
          "value": "400070"
        },
        {
          "id": "store-46",
          "name": "Tulsa",
          "lat": 36.1539816,
          "lon": -95.99277500000001,
          "value": "398121"
        },
        {
          "id": "store-47",
          "name": "Cleveland",
          "lat": 41.49932,
          "lon": -81.6943605,
          "value": "390113"
        },
        {
          "id": "store-48",
          "name": "Wichita",
          "lat": 37.688889,
          "lon": -97.336111,
          "value": "386552"
        },
        {
          "id": "store-49",
          "name": "Arlington",
          "lat": 32.735687,
          "lon": -97.10806559999999,
          "value": "379577"
        },
        {
          "id": "store-50",
          "name": "New Orleans",
          "lat": 29.95106579999999,
          "lon": -90.0715323,
          "value": "378715"
        },
        {
          "id": "store-51",
          "name": "Bakersfield",
          "lat": 35.3732921,
          "lon": -119.0187125,
          "value": "363630"
        },
        {
          "id": "store-52",
          "name": "Tampa",
          "lat": 27.950575,
          "lon": -82.4571776,
          "value": "352957"
        },
        {
          "id": "store-53",
          "name": "Honolulu",
          "lat": 21.3069444,
          "lon": -157.8583333,
          "value": "347884"
        },
        {
          "id": "store-54",
          "name": "Aurora",
          "lat": 39.7294319,
          "lon": -104.8319195,
          "value": "345803"
        },
        {
          "id": "store-55",
          "name": "Anaheim",
          "lat": 33.8352932,
          "lon": -117.9145036,
          "value": "345012"
        },
        {
          "id": "store-56",
          "name": "Santa Ana",
          "lat": 33.7455731,
          "lon": -117.8678338,
          "value": "334227"
        },
        {
          "id": "store-57",
          "name": "St. Louis",
          "lat": 38.6270025,
          "lon": -90.19940419999999,
          "value": "318416"
        },
        {
          "id": "store-58",
          "name": "Riverside",
          "lat": 33.9533487,
          "lon": -117.3961564,
          "value": "316619"
        },
        {
          "id": "store-59",
          "name": "Corpus Christi",
          "lat": 27.8005828,
          "lon": -97.39638099999999,
          "value": "316381"
        },
        {
          "id": "store-60",
          "name": "Lexington-Fayette",
          "lat": 38.0405837,
          "lon": -84.5037164,
          "value": "308428"
        },
        {
          "id": "store-61",
          "name": "Pittsburgh",
          "lat": 40.44062479999999,
          "lon": -79.9958864,
          "value": "305841"
        },
        {
          "id": "store-62",
          "name": "Anchorage",
          "lat": 61.2180556,
          "lon": -149.9002778,
          "value": "300950"
        },
        {
          "id": "store-63",
          "name": "Stockton",
          "lat": 37.9577016,
          "lon": -121.2907796,
          "value": "298118"
        },
        {
          "id": "store-64",
          "name": "Cincinnati",
          "lat": 39.1031182,
          "lon": -84.5120196,
          "value": "297517"
        },
        {
          "id": "store-65",
          "name": "St. Paul",
          "lat": 44.9537029,
          "lon": -93.0899578,
          "value": "294873"
        },
        {
          "id": "store-66",
          "name": "Toledo",
          "lat": 41.6639383,
          "lon": -83.55521200000001,
          "value": "282313"
        },
        {
          "id": "store-67",
          "name": "Greensboro",
          "lat": 36.0726354,
          "lon": -79.7919754,
          "value": "279639"
        },
        {
          "id": "store-68",
          "name": "Newark",
          "lat": 40.735657,
          "lon": -74.1723667,
          "value": "278427"
        },
        {
          "id": "store-69",
          "name": "Plano",
          "lat": 33.0198431,
          "lon": -96.6988856,
          "value": "274409"
        },
        {
          "id": "store-70",
          "name": "Henderson",
          "lat": 36.0395247,
          "lon": -114.9817213,
          "value": "270811"
        },
        {
          "id": "store-71",
          "name": "Lincoln",
          "lat": 40.8257625,
          "lon": -96.6851982,
          "value": "268738"
        }
      ]
    },
    "bars-one": {
      "title": "Hurricane Impact",
      "prefix": "$",
      "sufix": "",
      "format": "",
      "type": "number",
      "data": [
        {
          "id": "store-0",
          "name": "New York",
          "lat": 40.7127837,
          "lon": -74.0059413,
          "value": "8405837"
        },
        {
          "id": "store-1",
          "name": "Los Angeles",
          "lat": 34.0522342,
          "lon": -118.2436849,
          "value": "3884307"
        },
        {
          "id": "store-2",
          "name": "Chicago",
          "lat": 41.8781136,
          "lon": -87.6297982,
          "value": "2718782"
        },
        {
          "id": "store-3",
          "name": "Houston",
          "lat": 29.7604267,
          "lon": -95.3698028,
          "value": "2195914"
        },
        {
          "id": "store-4",
          "name": "Philadelphia",
          "lat": 39.9525839,
          "lon": -75.1652215,
          "value": "1553165"
        },
        {
          "id": "store-5",
          "name": "Phoenix",
          "lat": 33.4483771,
          "lon": -112.0740373,
          "value": "1513367"
        },
        {
          "id": "store-6",
          "name": "San Antonio",
          "lat": 29.4241219,
          "lon": -98.49362819999999,
          "value": "1409019"
        },
        {
          "id": "store-7",
          "name": "San Diego",
          "lat": 32.715738,
          "lon": -117.1610838,
          "value": "1355896"
        },
        {
          "id": "store-8",
          "name": "Dallas",
          "lat": 32.7766642,
          "lon": -96.79698789999999,
          "value": "1257676"
        },
        {
          "id": "store-9",
          "name": "San Jose",
          "lat": 37.3382082,
          "lon": -121.8863286,
          "value": "998537"
        },
        {
          "id": "store-10",
          "name": "Austin",
          "lat": 30.267153,
          "lon": -97.7430608,
          "value": "885400"
        },
        {
          "id": "store-11",
          "name": "Indianapolis",
          "lat": 39.768403,
          "lon": -86.158068,
          "value": "843393"
        },
        {
          "id": "store-12",
          "name": "Jacksonville",
          "lat": 30.3321838,
          "lon": -81.65565099999999,
          "value": "842583"
        },
        {
          "id": "store-13",
          "name": "San Francisco",
          "lat": 37.7749295,
          "lon": -122.4194155,
          "value": "837442"
        },
        {
          "id": "store-14",
          "name": "Columbus",
          "lat": 39.9611755,
          "lon": -82.99879419999999,
          "value": "822553"
        },
        {
          "id": "store-15",
          "name": "Charlotte",
          "lat": 35.2270869,
          "lon": -80.8431267,
          "value": "792862"
        },
        {
          "id": "store-16",
          "name": "Fort Worth",
          "lat": 32.7554883,
          "lon": -97.3307658,
          "value": "792727"
        },
        {
          "id": "store-17",
          "name": "Detroit",
          "lat": 42.331427,
          "lon": -83.0457538,
          "value": "688701"
        },
        {
          "id": "store-18",
          "name": "El Paso",
          "lat": 31.7775757,
          "lon": -106.4424559,
          "value": "674433"
        },
        {
          "id": "store-19",
          "name": "Memphis",
          "lat": 35.1495343,
          "lon": -90.0489801,
          "value": "653450"
        },
        {
          "id": "store-20",
          "name": "Seattle",
          "lat": 47.6062095,
          "lon": -122.3320708,
          "value": "652405"
        },
        {
          "id": "store-21",
          "name": "Denver",
          "lat": 39.7392358,
          "lon": -104.990251,
          "value": "649495"
        },
        {
          "id": "store-22",
          "name": "Washington",
          "lat": 38.9071923,
          "lon": -77.0368707,
          "value": "646449"
        },
        {
          "id": "store-23",
          "name": "Boston",
          "lat": 42.3600825,
          "lon": -71.0588801,
          "value": "645966"
        },
        {
          "id": "store-24",
          "name": "Nashville-Davidson",
          "lat": 36.1626638,
          "lon": -86.7816016,
          "value": "634464"
        },
        {
          "id": "store-25",
          "name": "Baltimore",
          "lat": 39.2903848,
          "lon": -76.6121893,
          "value": "622104"
        },
        {
          "id": "store-26",
          "name": "Oklahoma City",
          "lat": 35.4675602,
          "lon": -97.5164276,
          "value": "610613"
        },
        {
          "id": "store-27",
          "name": "Louisville/Jefferson County",
          "lat": 38.2526647,
          "lon": -85.7584557,
          "value": "609893"
        },
        {
          "id": "store-28",
          "name": "Portland",
          "lat": 45.5230622,
          "lon": -122.6764816,
          "value": "609456"
        }
      ]
    }
  }
}
